[
  {"name": "Jurong East", "code": "EW24/NS1", "line": ["EWL", "NSL"], "lat": 1.3329, "lng": 103.7422},
  {"name": "Bukit Batok", "code": "NS2", "line": ["NSL"], "lat": 1.3490, "lng": 103.7496},
  {"name": "Bukit Gombak", "code": "NS3", "line": ["NSL"], "lat": 1.3590, "lng": 103.7518},
  {"name": "Choa Chu Kang", "code": "NS4", "line": ["NSL"], "lat": 1.3854, "lng": 103.7444},
  {"name": "Yew Tee", "code": "NS5", "line": ["NSL"], "lat": 1.3973, "lng": 103.7475},
  {"name": "Kranji", "code": "NS7", "line": ["NSL"], "lat": 1.4251, "lng": 103.7620},
  {"name": "Marsiling", "code": "NS8", "line": ["NSL"], "lat": 1.4325, "lng": 103.7740},
  {"name": "Woodlands", "code": "NS9/TE2", "line": ["NSL", "TEL"], "lat": 1.4370, "lng": 103.7865},
  {"name": "Admiralty", "code": "NS10", "line": ["NSL"], "lat": 1.4406, "lng": 103.8010},
  {"name": "Sembawang", "code": "NS11", "line": ["NSL"], "lat": 1.4491, "lng": 103.8200},
  {"name": "Canberra", "code": "NS12", "line": ["NSL"], "lat": 1.4433, "lng": 103.8296},
  {"name": "Yishun", "code": "NS13", "line": ["NSL"], "lat": 1.4294, "lng": 103.8353},
  {"name": "Khatib", "code": "NS14", "line": ["NSL"], "lat": 1.4174, "lng": 103.8329},
  {"name": "Yio Chu Kang", "code": "NS15", "line": ["NSL"], "lat": 1.3818, "lng": 103.8449},
  {"name": "Ang Mo Kio", "code": "NS16", "line": ["NSL"], "lat": 1.3700, "lng": 103.8496},
  {"name": "Bishan", "code": "NS17/CC15", "line": ["NSL", "CCL"], "lat": 1.3513, "lng": 103.8492},
  {"name": "Braddell", "code": "NS18", "line": ["NSL"], "lat": 1.3404, "lng": 103.8469},
  {"name": "Toa Payoh", "code": "NS19", "line": ["NSL"], "lat": 1.3327, "lng": 103.8473},
  {"name": "Novena", "code": "NS20", "line": ["NSL"], "lat": 1.3204, "lng": 103.8438},
  {"name": "Newton", "code": "NS21/DT11", "line": ["NSL", "DTL"], "lat": 1.3138, "lng": 103.8380},
  {"name": "Orchard", "code": "NS22/TE14", "line": ["NSL", "TEL"], "lat": 1.3043, "lng": 103.8318},
  {"name": "Somerset", "code": "NS23", "line": ["NSL"], "lat": 1.3006, "lng": 103.8387},
  {"name": "Dhoby Ghaut", "code": "NS24/NE6/CC1", "line": ["NSL", "NEL", "CCL"], "lat": 1.2993, "lng": 103.8458},
  {"name": "City Hall", "code": "NS25/EW13", "line": ["NSL", "EWL"], "lat": 1.2931, "lng": 103.8519},
  {"name": "Raffles Place", "code": "NS26/EW14", "line": ["NSL", "EWL"], "lat": 1.2840, "lng": 103.8514},
  {"name": "Marina Bay", "code": "NS27/CE2/TE20", "line": ["NSL", "CCL", "TEL"], "lat": 1.2764, "lng": 103.8546},
  {"name": "Marina South Pier", "code": "NS28", "line": ["NSL"], "lat": 1.2715, "lng": 103.8632},
  {"name": "Chinese Garden", "code": "EW25", "line": ["EWL"], "lat": 1.3424, "lng": 103.7326},
  {"name": "Lakeside", "code": "EW26", "line": ["EWL"], "lat": 1.3444, "lng": 103.7209},
  {"name": "Boon Lay", "code": "EW27", "line": ["EWL"], "lat": 1.3384, "lng": 103.7060},
  {"name": "Pioneer", "code": "EW28", "line": ["EWL"], "lat": 1.3376, "lng": 103.6972},
  {"name": "Joo Koon", "code": "EW29", "line": ["EWL"], "lat": 1.3279, "lng": 103.6783},
  {"name": "Tuas Crescent", "code": "EW31", "line": ["EWL"], "lat": 1.3210, "lng": 103.6492},
  {"name": "Tuas West Road", "code": "EW32", "line": ["EWL"], "lat": 1.3300, "lng": 103.6396},
  {"name": "Tuas Link", "code": "EW33", "line": ["EWL"], "lat": 1.3408, "lng": 103.6366},
  {"name": "Clementi", "code": "EW23", "line": ["EWL"], "lat": 1.3151, "lng": 103.7649},
  {"name": "Dover", "code": "EW22", "line": ["EWL"], "lat": 1.3115, "lng": 103.7786},
  {"name": "Commonwealth", "code": "EW20", "line": ["EWL"], "lat": 1.3023, "lng": 103.7985},
  {"name": "Queenstown", "code": "EW19", "line": ["EWL"], "lat": 1.2946, "lng": 103.7858},
  {"name": "Redhill", "code": "EW18", "line": ["EWL"], "lat": 1.2894, "lng": 103.8168},
  {"name": "Tiong Bahru", "code": "EW17", "line": ["EWL"], "lat": 1.2862, "lng": 103.8271},
  {"name": "Outram Park", "code": "EW16/NE3/TE17", "line": ["EWL", "NEL", "TEL"], "lat": 1.2803, "lng": 103.8395},
  {"name": "Tanjong Pagar", "code": "EW15", "line": ["EWL"], "lat": 1.2764, "lng": 103.8468},
  {"name": "Bugis", "code": "EW12/DT14", "line": ["EWL", "DTL"], "lat": 1.3009, "lng": 103.8560},
  {"name": "Lavender", "code": "EW11", "line": ["EWL"], "lat": 1.3073, "lng": 103.8630},
  {"name": "Kallang", "code": "EW10", "line": ["EWL"], "lat": 1.3114, "lng": 103.8714},
  {"name": "Aljunied", "code": "EW9", "line": ["EWL"], "lat": 1.3165, "lng": 103.8829},
  {"name": "Paya Lebar", "code": "EW8/CC9", "line": ["EWL", "CCL"], "lat": 1.3176, "lng": 103.8932},
  {"name": "Eunos", "code": "EW7", "line": ["EWL"], "lat": 1.3199, "lng": 103.9030},
  {"name": "Kembangan", "code": "EW6", "line": ["EWL"], "lat": 1.3209, "lng": 103.9128},
  {"name": "Bedok", "code": "EW5", "line": ["EWL"], "lat": 1.3240, "lng": 103.9300},
  {"name": "Tanah Merah", "code": "EW4", "line": ["EWL"], "lat": 1.3272, "lng": 103.9464},
  {"name": "Simei", "code": "EW3", "line": ["EWL"], "lat": 1.3432, "lng": 103.9531},
  {"name": "Tampines", "code": "EW2/DT32", "line": ["EWL", "DTL"], "lat": 1.3545, "lng": 103.9453},
  {"name": "Pasir Ris", "code": "EW1", "line": ["EWL"], "lat": 1.3731, "lng": 103.9494},
  {"name": "HarbourFront", "code": "NE1/CC29", "line": ["NEL", "CCL"], "lat": 1.2654, "lng": 103.8209},
  {"name": "Chinatown", "code": "NE4/DT19", "line": ["NEL", "DTL"], "lat": 1.2845, "lng": 103.8443},
  {"name": "Clarke Quay", "code": "NE5", "line": ["NEL"], "lat": 1.2885, "lng": 103.8465},
  {"name": "Little India", "code": "NE7/DT12", "line": ["NEL", "DTL"], "lat": 1.3063, "lng": 103.8492},
  {"name": "Farrer Park", "code": "NE8", "line": ["NEL"], "lat": 1.3124, "lng": 103.8543},
  {"name": "Boon Keng", "code": "NE9", "line": ["NEL"], "lat": 1.3194, "lng": 103.8619},
  {"name": "Potong Pasir", "code": "NE10", "line": ["NEL"], "lat": 1.3313, "lng": 103.8688},
  {"name": "Woodleigh", "code": "NE11", "line": ["NEL"], "lat": 1.3392, "lng": 103.8707},
  {"name": "Serangoon", "code": "NE12/CC13", "line": ["NEL", "CCL"], "lat": 1.3498, "lng": 103.8734},
  {"name": "Kovan", "code": "NE13", "line": ["NEL"], "lat": 1.3601, "lng": 103.8851},
  {"name": "Hougang", "code": "NE14", "line": ["NEL"], "lat": 1.3713, "lng": 103.8925},
  {"name": "Buangkok", "code": "NE15", "line": ["NEL"], "lat": 1.3831, "lng": 103.8929},
  {"name": "Sengkang", "code": "NE16", "line": ["NEL"], "lat": 1.3915, "lng": 103.8954},
  {"name": "Punggol", "code": "NE17", "line": ["NEL"], "lat": 1.4053, "lng": 103.9023},
  {"name": "Bayfront", "code": "CE1/DT16", "line": ["CCL", "DTL"], "lat": 1.2816, "lng": 103.8590},
  {"name": "Bras Basah", "code": "CC2", "line": ["CCL"], "lat": 1.2969, "lng": 103.8506},
  {"name": "Esplanade", "code": "CC3", "line": ["CCL"], "lat": 1.2937, "lng": 103.8554},
  {"name": "Promenade", "code": "CC4/DT15", "line": ["CCL", "DTL"], "lat": 1.2931, "lng": 103.8610},
  {"name": "Nicoll Highway", "code": "CC5", "line": ["CCL"], "lat": 1.2997, "lng": 103.8637},
  {"name": "Stadium", "code": "CC6", "line": ["CCL"], "lat": 1.3027, "lng": 103.8754},
  {"name": "Mountbatten", "code": "CC7", "line": ["CCL"], "lat": 1.3064, "lng": 103.8825},
  {"name": "Dakota", "code": "CC8", "line": ["CCL"], "lat": 1.3085, "lng": 103.8886},
  {"name": "MacPherson", "code": "CC10/DT26", "line": ["CCL", "DTL"], "lat": 1.3265, "lng": 103.8900},
  {"name": "Tai Seng", "code": "CC11", "line": ["CCL"], "lat": 1.3359, "lng": 103.8879},
  {"name": "Bartley", "code": "CC12", "line": ["CCL"], "lat": 1.3424, "lng": 103.8798},
  {"name": "Lorong Chuan", "code": "CC14", "line": ["CCL"], "lat": 1.3516, "lng": 103.8638},
  {"name": "Marymount", "code": "CC16", "line": ["CCL"], "lat": 1.3493, "lng": 103.8393},
  {"name": "Caldecott", "code": "CC17/TE9", "line": ["CCL", "TEL"], "lat": 1.3374, "lng": 103.8395},
  {"name": "Botanic Gardens", "code": "CC19/DT9", "line": ["CCL", "DTL"], "lat": 1.3224, "lng": 103.8152},
  {"name": "Farrer Road", "code": "CC20", "line": ["CCL"], "lat": 1.3177, "lng": 103.8075},
  {"name": "Holland Village", "code": "CC21", "line": ["CCL"], "lat": 1.3116, "lng": 103.7960},
  {"name": "Buona Vista", "code": "EW21/CC22", "line": ["EWL", "CCL"], "lat": 1.3074, "lng": 103.7901},
  {"name": "one-north", "code": "CC23", "line": ["CCL"], "lat": 1.2997, "lng": 103.7874},
  {"name": "Kent Ridge", "code": "CC24", "line": ["CCL"], "lat": 1.2936, "lng": 103.7846},
  {"name": "Haw Par Villa", "code": "CC25", "line": ["CCL"], "lat": 1.2828, "lng": 103.7821},
  {"name": "Pasir Panjang", "code": "CC26", "line": ["CCL"], "lat": 1.2762, "lng": 103.7917},
  {"name": "Labrador Park", "code": "CC27", "line": ["CCL"], "lat": 1.2722, "lng": 103.8027},
  {"name": "Telok Blangah", "code": "CC28", "line": ["CCL"], "lat": 1.2707, "lng": 103.8099},
  {"name": "Bukit Panjang", "code": "DT1", "line": ["DTL"], "lat": 1.3785, "lng": 103.7620},
  {"name": "Cashew", "code": "DT2", "line": ["DTL"], "lat": 1.3690, "lng": 103.7644},
  {"name": "Hillview", "code": "DT3", "line": ["DTL"], "lat": 1.3626, "lng": 103.7675},
  {"name": "Beauty World", "code": "DT5", "line": ["DTL"], "lat": 1.3415, "lng": 103.7759},
  {"name": "King Albert Park", "code": "DT6", "line": ["DTL"], "lat": 1.3355, "lng": 103.7836},
  {"name": "Sixth Avenue", "code": "DT7", "line": ["DTL"], "lat": 1.3307, "lng": 103.7975},
  {"name": "Tan Kah Kee", "code": "DT8", "line": ["DTL"], "lat": 1.3258, "lng": 103.8074},
  {"name": "Stevens", "code": "DT10/TE11", "line": ["DTL", "TEL"], "lat": 1.3200, "lng": 103.8260},
  {"name": "Rochor", "code": "DT13", "line": ["DTL"], "lat": 1.3035, "lng": 103.8525},
  {"name": "Downtown", "code": "DT17", "line": ["DTL"], "lat": 1.2794, "lng": 103.8527},
  {"name": "Telok Ayer", "code": "DT18", "line": ["DTL"], "lat": 1.2820, "lng": 103.8484},
  {"name": "Fort Canning", "code": "DT20", "line": ["DTL"], "lat": 1.2923, "lng": 103.8440},
  {"name": "Bencoolen", "code": "DT21", "line": ["DTL"], "lat": 1.2984, "lng": 103.8499},
  {"name": "Jalan Besar", "code": "DT22", "line": ["DTL"], "lat": 1.3054, "lng": 103.8554},
  {"name": "Bendemeer", "code": "DT23", "line": ["DTL"], "lat": 1.3138, "lng": 103.8630},
  {"name": "Geylang Bahru", "code": "DT24", "line": ["DTL"], "lat": 1.3214, "lng": 103.8716},
  {"name": "Mattar", "code": "DT25", "line": ["DTL"], "lat": 1.3272, "lng": 103.8831},
  {"name": "Ubi", "code": "DT27", "line": ["DTL"], "lat": 1.3299, "lng": 103.8991},
  {"name": "Kaki Bukit", "code": "DT28", "line": ["DTL"], "lat": 1.3349, "lng": 103.9088},
  {"name": "Bedok North", "code": "DT29", "line": ["DTL"], "lat": 1.3346, "lng": 103.9179},
  {"name": "Bedok Reservoir", "code": "DT30", "line": ["DTL"], "lat": 1.3368, "lng": 103.9323},
  {"name": "Tampines West", "code": "DT31", "line": ["DTL"], "lat": 1.3457, "lng": 103.9385},
  {"name": "Tampines East", "code": "DT33", "line": ["DTL"], "lat": 1.3564, "lng": 103.9548},
  {"name": "Upper Changi", "code": "DT34", "line": ["DTL"], "lat": 1.3416, "lng": 103.9614},
  {"name": "Expo", "code": "DT35/CG1", "line": ["DTL", "EWL"], "lat": 1.3353, "lng": 103.9614},
  {"name": "Woodlands North", "code": "TE1", "line": ["TEL"], "lat": 1.4488, "lng": 103.7848},
  {"name": "Woodlands South", "code": "TE3", "line": ["TEL"], "lat": 1.4271, "lng": 103.7933},
  {"name": "Springleaf", "code": "TE4", "line": ["TEL"], "lat": 1.3978, "lng": 103.8187},
  {"name": "Lentor", "code": "TE5", "line": ["TEL"], "lat": 1.3847, "lng": 103.8365},
  {"name": "Mayflower", "code": "TE6", "line": ["TEL"], "lat": 1.3718, "lng": 103.8382},
  {"name": "Bright Hill", "code": "TE7", "line": ["TEL"], "lat": 1.3635, "lng": 103.8416},
  {"name": "Upper Thomson", "code": "TE8", "line": ["TEL"], "lat": 1.3539, "lng": 103.8387},
  {"name": "Mount Pleasant", "code": "TE10", "line": ["TEL"], "lat": 1.3282, "lng": 103.8353},
  {"name": "Napier", "code": "TE12", "line": ["TEL"], "lat": 1.3067, "lng": 103.8227},
  {"name": "Great World", "code": "TE15", "line": ["TEL"], "lat": 1.2930, "lng": 103.8360},
  {"name": "Havelock", "code": "TE16", "line": ["TEL"], "lat": 1.2862, "lng": 103.8366},
  {"name": "Maxwell", "code": "TE18", "line": ["TEL"], "lat": 1.2796, "lng": 103.8445},
  {"name": "Shenton Way", "code": "TE19", "line": ["TEL"], "lat": 1.2764, "lng": 103.8503},
  {"name": "Gardens by the Bay", "code": "TE22", "line": ["TEL"], "lat": 1.2796, "lng": 103.8655},
  {"name": "Tanjong Rhu", "code": "TE23", "line": ["TEL"], "lat": 1.2934, "lng": 103.8730},
  {"name": "Katong Park", "code": "TE24", "line": ["TEL"], "lat": 1.2969, "lng": 103.8853},
  {"name": "Tanjong Katong", "code": "TE25", "line": ["TEL"], "lat": 1.3045, "lng": 103.8948},
  {"name": "Marine Parade", "code": "TE26", "line": ["TEL"], "lat": 1.3063, "lng": 103.9058},
  {"name": "Marine Terrace", "code": "TE27", "line": ["TEL"], "lat": 1.3090, "lng": 103.9148},
  {"name": "Siglap", "code": "TE28", "line": ["TEL"], "lat": 1.3117, "lng": 103.9265},
  {"name": "Bayshore", "code": "TE29", "line": ["TEL"], "lat": 1.3143, "lng": 103.9395},
  {"name": "Changi Airport", "code": "CG2", "line": ["EWL"], "lat": 1.3574, "lng": 103.9885}
]
